{
  "type": "FeatureCollection",
  "generator": "overpass-turbo",
  "copyright": "The data included in this document is from www.openstreetmap.org. The data is made available under ODbL.",
  "timestamp": "2016-10-09T17:48:02Z",
  "features": [
    {
      "type": "Feature",
      "id": "node/24815678",
      "properties": {
        "@id": "node/24815678",
        "amenity": "restaurant",
        "cuisine": "japanese",
        "name": "Kamakura Japanese Restaurant"
      },
      "geometry": {
        "type": "Point",
        "coordinates": [
          120.995001,
          14.5532842
        ]
      }
    },
    {
      "type": "Feature",
      "id": "node/26032624",
      "properties": {
        "@id": "node/26032624",
        "addr:city": "Manila",
        "addr:province": "Metro Manila",
        "amenity": "restaurant",
        "name": "Emerald Garden"
      },
      "geometry": {
        "type": "Point",
        "coordinates": [
          120.9789199,
          14.5778488
        ]
      }
    },
    {
      "type": "Feature",
      "id": "node/26032786",
      "properties": {
        "@id": "node/26032786",
        "addr:city": "Manila",
        "addr:province": "Metro Manila",
        "amenity": "restaurant",
        "cuisine": "chicken",
        "name": "Max's"
      },
      "geometry": {
        "type": "Point",
        "coordinates": [
          120.9834023,
          14.5691483
        ]
      }
    },
    {
      "type": "Feature",
      "id": "node/26035475",
      "properties": {
        "@id": "node/26035475",
        "amenity": "restaurant",
        "description": "has one of the best buffet sets in Manila",
        "name": "Spiral"
      },
      "geometry": {
        "type": "Point",
        "coordinates": [
          120.980442,
          14.5530715
        ]
      }
    },
    {
      "type": "Feature",
      "id": "node/255049855",
      "properties": {
        "@id": "node/255049855",
        "addr:city": "Makati",
        "addr:housename": "Glorietta 3",
        "addr:street": "Parkway Drive",
        "amenity": "restaurant",
        "name": "Hard Rock Cafe"
      },
      "geometry": {
        "type": "Point",
        "coordinates": [
          121.0256573,
          14.5523564
        ]
      }
    },
    {
      "type": "Feature",
      "id": "node/255049862",
      "properties": {
        "@id": "node/255049862",
        "addr:city": "Makati",
        "addr:street": "Nicanor T. Garcia",
        "amenity": "restaurant",
        "garmin:description": "dining (Italian)",
        "name": "L' Incontro",
        "source": "jklinc",
        "source:url": "http://www.freewebs.com/phroadguide/"
      },
      "geometry": {
        "type": "Point",
        "coordinates": [
          121.0234328,
          14.5656627
        ]
      }
    },
    {
      "type": "Feature",
      "id": "node/255049910",
      "properties": {
        "@id": "node/255049910",
        "addr:city": "Makati",
        "addr:housename": "Greenbelt 2",
        "addr:postcode": "1200",
        "addr:street": "Esperanza",
        "amenity": "restaurant",
        "cuisine": "mexican",
        "name": "Chihuahua"
      },
      "geometry": {
        "type": "Point",
        "coordinates": [
          121.0204948,
          14.5517598
        ]
      }
    },
    {
      "type": "Feature",
      "id": "node/255050774",
      "properties": {
        "@id": "node/255050774",
        "addr:city": "Manila",
        "addr:province": "Metro Manila",
        "amenity": "restaurant",
        "name": "Chicken Bacolod"
      },
      "geometry": {
        "type": "Point",
        "coordinates": [
          120.9846643,
          14.5751376
        ]
      }
    },
    {
      "type": "Feature",
      "id": "node/255058396",
      "properties": {
        "@id": "node/255058396",
        "addr:city": "Makati",
        "addr:postcode": "1200",
        "amenity": "restaurant",
        "name": "Palato Fino",
        "source": "jklinc",
        "source:url": "http://www.freewebs.com/phroadguide/"
      },
      "geometry": {
        "type": "Point",
        "coordinates": [
          121.023727,
          14.562971
        ]
      }
    },
    {
      "type": "Feature",
      "id": "node/255059898",
      "properties": {
        "@id": "node/255059898",
        "addr:city": "Makati",
        "addr:postcode": "1203",
        "amenity": "restaurant",
        "garmin:description": "dining (other)",
        "name": "Via Mare",
        "source": "jklinc",
        "source:url": "http://www.freewebs.com/phroadguide/"
      },
      "geometry": {
        "type": "Point",
        "coordinates": [
          121.011632,
          14.5625212
        ]
      }
    },
    {
      "type": "Feature",
      "id": "node/255060049",
      "properties": {
        "@id": "node/255060049",
        "addr:city": "Makati",
        "addr:postcode": "1200",
        "alt_name": "Shinjuku Ramen House",
        "amenity": "restaurant",
        "garmin:description": "dining (Asian)",
        "name": "Shinjuku",
        "name:ja": "新宿ラーメン",
        "source": "jklinc",
        "source:url": "http://www.freewebs.com/phroadguide/"
      },
      "geometry": {
        "type": "Point",
        "coordinates": [
          121.0140029,
          14.5534904
        ]
      }
    },
    {
      "type": "Feature",
      "id": "node/255060724",
      "properties": {
        "@id": "node/255060724",
        "addr:city": "Makati",
        "addr:housename": "Greenbelt 2",
        "addr:postcode": "1200",
        "addr:street": "Esperanza",
        "amenity": "restaurant",
        "cuisine": "japanese",
        "name": "Tonkatsu by Terazawa"
      },
      "geometry": {
        "type": "Point",
        "coordinates": [
          121.0200435,
          14.5521271
        ]
      }
    },
    {
      "type": "Feature",
      "id": "node/255061743",
      "properties": {
        "@id": "node/255061743",
        "addr:city": "Makati",
        "addr:postcode": "1208",
        "addr:street": "Nicanor T. Garcia",
        "amenity": "restaurant",
        "cuisine": "chinese",
        "name": "Som's Noodle House",
        "source": "jklinc",
        "source:url": "http://www.freewebs.com/phroadguide/"
      },
      "geometry": {
        "type": "Point",
        "coordinates": [
          121.0238979,
          14.5678257
        ]
      }
    },
    {
      "type": "Feature",
      "id": "node/255062309",
      "properties": {
        "@id": "node/255062309",
        "addr:city": "Makati",
        "addr:street": "Senator Gil Puyat Avenue",
        "amenity": "restaurant",
        "name": "Pancake House"
      },
      "geometry": {
        "type": "Point",
        "coordinates": [
          121.027481,
          14.5621598
        ]
      }
    },
    {
      "type": "Feature",
      "id": "node/255063346",
      "properties": {
        "@id": "node/255063346",
        "addr:city": "Makati",
        "addr:postcode": "1200",
        "addr:street": "Don Chino Roces Avenue",
        "amenity": "restaurant",
        "garmin:description": "dining (other)",
        "name": "Smokeys",
        "source": "jklinc",
        "source:url": "http://www.freewebs.com/phroadguide/"
      },
      "geometry": {
        "type": "Point",
        "coordinates": [
          121.010954,
          14.5628615
        ]
      }
    },
    {
      "type": "Feature",
      "id": "node/255063778",
      "properties": {
        "@id": "node/255063778",
        "amenity": "restaurant",
        "cuisine": "pasta;pizza",
        "garmin:description": "dining (Pizza)",
        "is_in:city": "Quezon City",
        "is_in:region": "Ncr",
        "is_in:zip": "1100",
        "name": "Pizza Hut",
        "source": "jklinc",
        "source:url": "http://www.freewebs.com/phroadguide/"
      },
      "geometry": {
        "type": "Point",
        "coordinates": [
          121.0172933,
          14.6086361
        ]
      }
    },
    {
      "type": "Feature",
      "id": "node/255064636",
      "properties": {
        "@id": "node/255064636",
        "addr:city": "Manila",
        "addr:province": "Metro Manila",
        "amenity": "restaurant",
        "name": "Max's Chicken"
      },
      "geometry": {
        "type": "Point",
        "coordinates": [
          120.98439,
          14.57669
        ]
      }
    },
    {
      "type": "Feature",
      "id": "node/255065009",
      "properties": {
        "@id": "node/255065009",
        "addr:city": "Makati",
        "addr:street": "Nicanor T. Garcia",
        "amenity": "restaurant",
        "garmin:description": "restaurant",
        "name": "Cafe Caruso",
        "source": "jklinc",
        "source:url": "http://www.freewebs.com/phroadguide/"
      },
      "geometry": {
        "type": "Point",
        "coordinates": [
          121.0225582,
          14.5654953
        ]
      }
    },
    {
      "type": "Feature",
      "id": "node/255065746",
      "properties": {
        "@id": "node/255065746",
        "addr:city": "Makati",
        "addr:postcode": "1235",
        "amenity": "restaurant",
        "cuisine": "sushi",
        "garmin:description": "dining (Asian)",
        "name": "New Kamameshi Sushi Bar",
        "source": "jklinc",
        "source:url": "http://www.freewebs.com/phroadguide/"
      },
      "geometry": {
        "type": "Point",
        "coordinates": [
          121.0017881,
          14.5644823
        ]
      }
    },
    {
      "type": "Feature",
      "id": "node/255065872",
      "properties": {
        "@id": "node/255065872",
        "addr:city": "Makati",
        "addr:housename": "A&G Building",
        "addr:housenumber": "900",
        "addr:street": "Antonio S. Arnaiz Avenue",
        "addr:street:corner": "Edades",
        "amenity": "restaurant",
        "level": "1",
        "name": "Milky Way Café",
        "website": "http://cafe.milkywayrestaurant.com/"
      },
      "geometry": {
        "type": "Point",
        "coordinates": [
          121.0193379,
          14.5507761
        ]
      }
    },
    {
      "type": "Feature",
      "id": "node/255066505",
      "properties": {
        "@id": "node/255066505",
        "addr:city": "Makati",
        "addr:postcode": "1208",
        "addr:street": "Nicanor T. Garcia",
        "amenity": "restaurant",
        "garmin:description": "restaurant",
        "name": "Cucina Reposo",
        "source": "jklinc",
        "source:url": "http://www.freewebs.com/phroadguide/"
      },
      "geometry": {
        "type": "Point",
        "coordinates": [
          121.0238507,
          14.5676762
        ]
      }
    },
    {
      "type": "Feature",
      "id": "node/255066744",
      "properties": {
        "@id": "node/255066744",
        "addr:city": "Makati",
        "addr:postcode": "1203",
        "amenity": "restaurant",
        "garmin:description": "dining (other)",
        "name": "Car Snack",
        "source": "jklinc",
        "source:url": "http://www.freewebs.com/phroadguide/"
      },
      "geometry": {
        "type": "Point",
        "coordinates": [
          121.0139989,
          14.563191
        ]
      }
    },
    {
      "type": "Feature",
      "id": "node/255067033",
      "properties": {
        "@id": "node/255067033",
        "addr:city": "Makati",
        "addr:housename": "Greenbelt 2",
        "addr:postcode": "1200",
        "addr:street": "Esperanza",
        "addr:street:corner": "Greenbelt Drive",
        "amenity": "restaurant",
        "cuisine": "japanese",
        "name": "Sugi"
      },
      "geometry": {
        "type": "Point",
        "coordinates": [
          121.0206788,
          14.5517439
        ]
      }
    },
    {
      "type": "Feature",
      "id": "node/255067079",
      "properties": {
        "@id": "node/255067079",
        "addr:city": "Manila",
        "addr:province": "Metro Manila",
        "amenity": "restaurant",
        "name": "Gumbo"
      },
      "geometry": {
        "type": "Point",
        "coordinates": [
          120.984001,
          14.5765
        ]
      }
    },
    {
      "type": "Feature",
      "id": "node/255067433",
      "properties": {
        "@id": "node/255067433",
        "addr:city": "Makati",
        "addr:postcode": "1227",
        "addr:street": "H. V. Dela Costa",
        "amenity": "restaurant",
        "garmin:description": "dining (American)",
        "name": "Elbert's Steak Room",
        "source": "jklinc",
        "source:url": "http://www.freewebs.com/phroadguide/"
      },
      "geometry": {
        "type": "Point",
        "coordinates": [
          121.025514,
          14.5610565
        ]
      }
    },
    {
      "type": "Feature",
      "id": "node/255068245",
      "properties": {
        "@id": "node/255068245",
        "addr:city": "Makati",
        "addr:floor": "G/F",
        "addr:housename": "Coronel Condominium II",
        "addr:housenumber": "2727",
        "addr:postcode": "1208",
        "addr:street": "Kalayaan Avenue",
        "addr:street:corner": "Pililla",
        "amenity": "restaurant",
        "cuisine": "filipino",
        "level": "0",
        "name": "Buddy's"
      },
      "geometry": {
        "type": "Point",
        "coordinates": [
          121.0221778,
          14.5672912
        ]
      }
    },
    {
      "type": "Feature",
      "id": "node/255069047",
      "properties": {
        "@id": "node/255069047",
        "addr:city": "Pasay",
        "addr:postcode": "1300",
        "addr:street": "Senator Gil Puyat Avenue Extension",
        "amenity": "restaurant",
        "cuisine": "seafood",
        "name": "Marina Seafood Restaurant"
      },
      "geometry": {
        "type": "Point",
        "coordinates": [
          120.9878532,
          14.5528261
        ]
      }
    },
    {
      "type": "Feature",
      "id": "node/255069433",
      "properties": {
        "@id": "node/255069433",
        "addr:city": "Manila",
        "addr:province": "Metro Manila",
        "addr:street": "Roxas Boulevard",
        "amenity": "restaurant",
        "name": "Aristocrat"
      },
      "geometry": {
        "type": "Point",
        "coordinates": [
          120.9838813,
          14.5682352
        ]
      }
    },
    {
      "type": "Feature",
      "id": "node/255070009",
      "properties": {
        "@id": "node/255070009",
        "addr:city": "Makati",
        "addr:postcode": "1200",
        "amenity": "restaurant",
        "garmin:description": "dining (Asian)",
        "name": "Kisakura",
        "source": "jklinc",
        "source:url": "http://www.freewebs.com/phroadguide/"
      },
      "geometry": {
        "type": "Point",
        "coordinates": [
          121.018798,
          14.5509309
        ]
      }
    },
    {
      "type": "Feature",
      "id": "node/255070087",
      "properties": {
        "@id": "node/255070087",
        "addr:city": "Makati",
        "addr:postcode": "1226",
        "addr:street": "The Peninsula Manila",
        "amenity": "restaurant",
        "cuisine": "Feast_from_around_the_world_at_Escolta's_renowned_international_buffets_at_breakfast,_lunch_and_dinner_featuring_live_cooking_stations,_home-baked_breads,_fresh_pastas,_hand-rolled_sushi,_charcuterie,_Chinese_noodles...",
        "garmin:description": "dining (American)",
        "name": "Escolta",
        "opening_hours": "6:00 - 10:30am / 11:30 - 14:30 / 18:30 - 23:00",
        "smoking": "no",
        "source": "http://manila.peninsula.com/en/fine-dining/escolta-buffet",
        "source:url": "http://www.freewebs.com/phroadguide/"
      },
      "geometry": {
        "type": "Point",
        "coordinates": [
          121.0251829,
          14.555593
        ]
      }
    },
    {
      "type": "Feature",
      "id": "node/255071052",
      "properties": {
        "@id": "node/255071052",
        "addr:city": "Manila",
        "addr:district": "Malate",
        "addr:postcode": "1004",
        "addr:province": "Metro Manila",
        "amenity": "restaurant",
        "name": "Yellow Cab Harrison"
      },
      "geometry": {
        "type": "Point",
        "coordinates": [
          120.989372,
          14.5608704
        ]
      }
    },
    {
      "type": "Feature",
      "id": "node/255072238",
      "properties": {
        "@id": "node/255072238",
        "addr:city": "Makati",
        "addr:postcode": "1208",
        "addr:street": "Nicanor T. Garcia",
        "amenity": "restaurant",
        "name": "Cafe Maestro",
        "source": "jklinc",
        "source:url": "http://www.freewebs.com/phroadguide/"
      },
      "geometry": {
        "type": "Point",
        "coordinates": [
          121.0236445,
          14.5671605
        ]
      }
    },
    {
      "type": "Feature",
      "id": "node/255072335",
      "properties": {
        "@id": "node/255072335",
        "addr:city": "Manila",
        "addr:province": "Metro Manila",
        "amenity": "restaurant",
        "name": "Secret Recipe"
      },
      "geometry": {
        "type": "Point",
        "coordinates": [
          120.98381,
          14.576431
        ]
      }
    },
    {
      "type": "Feature",
      "id": "node/255072694",
      "properties": {
        "@id": "node/255072694",
        "addr:city": "Makati",
        "addr:postcode": "1231",
        "amenity": "restaurant",
        "garmin:description": "dining (other)",
        "name": "Makati Chef Garden Restaurant",
        "source": "jklinc",
        "source:url": "http://www.freewebs.com/phroadguide/"
      },
      "geometry": {
        "type": "Point",
        "coordinates": [
          121.013076,
          14.55689
        ]
      }
    },
    {
      "type": "Feature",
      "id": "node/261692202",
      "properties": {
        "@id": "node/261692202",
        "addr:city": "Manila",
        "addr:province": "Metro Manila",
        "amenity": "restaurant",
        "cuisine": "italian",
        "name": "Yellow Cab"
      },
      "geometry": {
        "type": "Point",
        "coordinates": [
          120.9782839,
          14.579144
        ]
      }
    },
    {
      "type": "Feature",
      "id": "node/320808262",
      "properties": {
        "@id": "node/320808262",
        "addr:city": "Makati",
        "addr:housename": "Glorietta 4",
        "addr:street": "Courtyard Drive",
        "addr:street:corner": "East",
        "amenity": "restaurant",
        "cuisine": "steak",
        "name": "Tony Roma's"
      },
      "geometry": {
        "type": "Point",
        "coordinates": [
          121.0263456,
          14.5510961
        ]
      }
    },
    {
      "type": "Feature",
      "id": "node/331699095",
      "properties": {
        "@id": "node/331699095",
        "addr:city": "Manila",
        "addr:place": "Quiapo",
        "addr:province": "Metro Manila",
        "addr:village": "Barangay 307",
        "amenity": "restaurant",
        "cuisine": "chinese",
        "name": "Ma Mon Luk",
        "re:vatin": "PH000915462001"
      },
      "geometry": {
        "type": "Point",
        "coordinates": [
          120.984175,
          14.6000623
        ]
      }
    },
    {
      "type": "Feature",
      "id": "node/394571083",
      "properties": {
        "@id": "node/394571083",
        "addr:city": "Makati",
        "amenity": "restaurant",
        "cuisine": "japanese",
        "name": "Tokyo Tokyo"
      },
      "geometry": {
        "type": "Point",
        "coordinates": [
          121.0152136,
          14.5606487
        ]
      }
    },
    {
      "type": "Feature",
      "id": "node/397597130",
      "properties": {
        "@id": "node/397597130",
        "alt_name": "Swagat Indian Restaurant",
        "amenity": "restaurant",
        "cuisine": "indian",
        "name": "Swagat"
      },
      "geometry": {
        "type": "Point",
        "coordinates": [
          121.0176444,
          14.555189
        ]
      }
    },
    {
      "type": "Feature",
      "id": "node/408653939",
      "properties": {
        "@id": "node/408653939",
        "amenity": "restaurant",
        "cuisine": "filipino",
        "name": "Mang Rudy's",
        "opening_hours": "Not open",
        "smoking": "separated"
      },
      "geometry": {
        "type": "Point",
        "coordinates": [
          121.0127409,
          14.562164
        ]
      }
    },
    {
      "type": "Feature",
      "id": "node/421749829",
      "properties": {
        "@id": "node/421749829",
        "addr:city": "Makati",
        "addr:housename": "Convergys One",
        "addr:housenumber": "6796",
        "addr:street": "Ayala Avenue",
        "addr:street:corner": "Salcedo",
        "amenity": "restaurant",
        "cuisine": "chinese",
        "name": "North Park"
      },
      "geometry": {
        "type": "Point",
        "coordinates": [
          121.0163959,
          14.5596355
        ]
      }
    },
    {
      "type": "Feature",
      "id": "node/421749835",
      "properties": {
        "@id": "node/421749835",
        "addr:city": "Makati",
        "addr:housename": "Convergys One",
        "addr:housenumber": "6796",
        "addr:street": "Ayala Avenue",
        "addr:street:corner": "Salcedo",
        "amenity": "restaurant",
        "cuisine": "chicken",
        "name": "Max's Restaurant"
      },
      "geometry": {
        "type": "Point",
        "coordinates": [
          121.0163445,
          14.5596704
        ]
      }
    },
    {
      "type": "Feature",
      "id": "node/425502326",
      "properties": {
        "@id": "node/425502326",
        "addr:city": "Makati",
        "amenity": "restaurant",
        "cuisine": "japanese",
        "name": "Kitaro"
      },
      "geometry": {
        "type": "Point",
        "coordinates": [
          121.0196558,
          14.5565618
        ]
      }
    },
    {
      "type": "Feature",
      "id": "node/425502334",
      "properties": {
        "@id": "node/425502334",
        "addr:city": "Makati",
        "amenity": "restaurant",
        "cuisine": "philippine",
        "name": "Barrio fiesta"
      },
      "geometry": {
        "type": "Point",
        "coordinates": [
          121.0195325,
          14.5566345
        ]
      }
    },
    {
      "type": "Feature",
      "id": "node/425702265",
      "properties": {
        "@id": "node/425702265",
        "addr:city": "Makati",
        "addr:postcode": "1231",
        "amenity": "restaurant",
        "cuisine": "chicken",
        "name": "Andoks"
      },
      "geometry": {
        "type": "Point",
        "coordinates": [
          121.0134348,
          14.5519308
        ]
      }
    },
    {
      "type": "Feature",
      "id": "node/426699774",
      "properties": {
        "@id": "node/426699774",
        "addr:city": "Makati",
        "addr:housename": "Makati Cinema Square",
        "addr:street": "Don Chino Roces Avenue",
        "amenity": "restaurant",
        "cuisine": "filipino",
        "name": "Sinangag Express"
      },
      "geometry": {
        "type": "Point",
        "coordinates": [
          121.0139058,
          14.5523362
        ]
      }
    },
    {
      "type": "Feature",
      "id": "node/426934472",
      "properties": {
        "@id": "node/426934472",
        "addr:city": "Makati",
        "amenity": "restaurant",
        "cuisine": "italian",
        "name": "Amici"
      },
      "geometry": {
        "type": "Point",
        "coordinates": [
          121.014132,
          14.5512808
        ]
      }
    },
    {
      "type": "Feature",
      "id": "node/427576894",
      "properties": {
        "@id": "node/427576894",
        "addr:city": "Makati",
        "amenity": "restaurant",
        "cuisine": "pizza",
        "name": "Yellow Cab"
      },
      "geometry": {
        "type": "Point",
        "coordinates": [
          121.0151705,
          14.5607193
        ]
      }
    },
    {
      "type": "Feature",
      "id": "node/427576898",
      "properties": {
        "@id": "node/427576898",
        "addr:city": "Makati",
        "amenity": "restaurant",
        "cuisine": "chicken",
        "name": "KFC"
      },
      "geometry": {
        "type": "Point",
        "coordinates": [
          121.0151274,
          14.5607899
        ]
      }
    },
    {
      "type": "Feature",
      "id": "node/429694774",
      "properties": {
        "@id": "node/429694774",
        "addr:city": "Makati",
        "amenity": "restaurant",
        "name": "Tachibana Izakaya Robota"
      },
      "geometry": {
        "type": "Point",
        "coordinates": [
          121.023113,
          14.5499213
        ]
      }
    },
    {
      "type": "Feature",
      "id": "node/429694777",
      "properties": {
        "@id": "node/429694777",
        "addr:city": "Makati",
        "amenity": "restaurant",
        "cuisine": "japanese",
        "name": "Isshin"
      },
      "geometry": {
        "type": "Point",
        "coordinates": [
          121.0246592,
          14.548795
        ]
      }
    },
    {
      "type": "Feature",
      "id": "node/429694780",
      "properties": {
        "@id": "node/429694780",
        "addr:city": "Makati",
        "amenity": "restaurant",
        "cuisine": "japanese",
        "name": "Yakiniku sakura"
      },
      "geometry": {
        "type": "Point",
        "coordinates": [
          121.024358,
          14.5491071
        ]
      }
    },
    {
      "type": "Feature",
      "id": "node/429812199",
      "properties": {
        "@id": "node/429812199",
        "addr:city": "Makati",
        "addr:housename": "A&G Building",
        "addr:housenumber": "900",
        "addr:street": "Antonio S. Arnaiz Avenue",
        "addr:street:corner": "Edades",
        "amenity": "restaurant",
        "cuisine": "thai",
        "level": "0",
        "name": "Azuthai",
        "website": "http://www.azuthai.com/"
      },
      "geometry": {
        "type": "Point",
        "coordinates": [
          121.0194017,
          14.5507701
        ]
      }
    },
    {
      "type": "Feature",
      "id": "node/429812200",
      "properties": {
        "@id": "node/429812200",
        "addr:city": "Makati",
        "addr:housename": "A&G Building",
        "addr:housenumber": "900",
        "addr:street": "Antonio S. Arnaiz Avenue",
        "addr:street:corner": "Edades",
        "amenity": "restaurant",
        "cuisine": "japanese",
        "level": "2",
        "name": "Tsukiji",
        "website": "http://www.tsukiji-restaurant.com/"
      },
      "geometry": {
        "type": "Point",
        "coordinates": [
          121.019462,
          14.5507663
        ]
      }
    },
    {
      "type": "Feature",
      "id": "node/429812201",
      "properties": {
        "@id": "node/429812201",
        "addr:city": "Makati",
        "addr:housename": "A&G Building",
        "addr:housenumber": "900",
        "addr:street": "Antonio S. Arnaiz Avenue",
        "addr:street:corner": "Edades",
        "amenity": "restaurant",
        "level": "0",
        "name": "Cirkulo",
        "website": "http://www.elcirkulo.com/"
      },
      "geometry": {
        "type": "Point",
        "coordinates": [
          121.0192784,
          14.550781
        ]
      }
    },
    {
      "type": "Feature",
      "id": "node/429820730",
      "properties": {
        "@id": "node/429820730",
        "addr:city": "Makati",
        "amenity": "restaurant",
        "cuisine": "japanese",
        "name": "Kikufuji",
        "name:ja": "居酒屋きくふじ"
      },
      "geometry": {
        "type": "Point",
        "coordinates": [
          121.0140003,
          14.5535838
        ]
      }
    },
    {
      "type": "Feature",
      "id": "node/429843715",
      "properties": {
        "@id": "node/429843715",
        "addr:city": "Makati",
        "addr:housename": "Makati Cinema Square",
        "addr:street": "Don Chino Roces Avenue",
        "amenity": "restaurant",
        "cuisine": "pizza",
        "name": "Shakey's"
      },
      "geometry": {
        "type": "Point",
        "coordinates": [
          121.0139412,
          14.5529174
        ]
      }
    },
    {
      "type": "Feature",
      "id": "node/430023693",
      "properties": {
        "@id": "node/430023693",
        "addr:city": "Makati",
        "amenity": "restaurant",
        "cuisine": "noodle",
        "name": "Goodah"
      },
      "geometry": {
        "type": "Point",
        "coordinates": [
          121.013758,
          14.5601088
        ]
      }
    },
    {
      "type": "Feature",
      "id": "node/430024650",
      "properties": {
        "@id": "node/430024650",
        "addr:city": "Makati",
        "addr:floor": "G/F",
        "addr:housename": "Centrepoint Building",
        "addr:street": "Don Chino Roces Avenue",
        "addr:street:corner": "Urban Avenue",
        "amenity": "restaurant",
        "level": "0",
        "name": "Mang Inasal"
      },
      "geometry": {
        "type": "Point",
        "coordinates": [
          121.0122022,
          14.5595065
        ]
      }
    },
    {
      "type": "Feature",
      "id": "node/433777094",
      "properties": {
        "@id": "node/433777094",
        "addr:city": "Makati",
        "addr:housename": "Adamson Centre",
        "addr:housenumber": "121",
        "addr:postcode": "1227",
        "addr:street": "L.P. Leviste",
        "amenity": "restaurant",
        "name": "121 Grill and Restaurant"
      },
      "geometry": {
        "type": "Point",
        "coordinates": [
          121.0244599,
          14.5601411
        ]
      }
    },
    {
      "type": "Feature",
      "id": "node/433777141",
      "properties": {
        "@id": "node/433777141",
        "addr:city": "Makati",
        "addr:housename": "One Lafayette Square",
        "addr:street": "Sedeno",
        "addr:street:corner": "San Agustin",
        "amenity": "restaurant",
        "name": "Apartment 1B"
      },
      "geometry": {
        "type": "Point",
        "coordinates": [
          121.0221964,
          14.5590095
        ]
      }
    },
    {
      "type": "Feature",
      "id": "node/433794122",
      "properties": {
        "@id": "node/433794122",
        "addr:city": "Makati",
        "addr:housename": "LPL Center",
        "addr:housenumber": "130",
        "addr:postcode": "1227",
        "addr:street": "L.P. Leviste",
        "amenity": "restaurant",
        "cuisine": "asian",
        "name": "Cafe Alfonso"
      },
      "geometry": {
        "type": "Point",
        "coordinates": [
          121.0218999,
          14.5591982
        ]
      }
    },
    {
      "type": "Feature",
      "id": "node/433794129",
      "properties": {
        "@id": "node/433794129",
        "addr:city": "Makati",
        "addr:housename": "LPL Center",
        "addr:housenumber": "130",
        "addr:postcode": "1227",
        "addr:street": "L.P. Leviste",
        "amenity": "restaurant",
        "name": "Gonzo Grill and Restaurant"
      },
      "geometry": {
        "type": "Point",
        "coordinates": [
          121.0218078,
          14.5591836
        ]
      }
    },
    {
      "type": "Feature",
      "id": "node/433794140",
      "properties": {
        "@id": "node/433794140",
        "addr:city": "Makati",
        "addr:housename": "Vernida 4",
        "addr:housenumber": "128",
        "addr:postcode": "1227",
        "addr:street": "L.P. Leviste",
        "amenity": "restaurant",
        "cuisine": "chinese",
        "name": "North Park"
      },
      "geometry": {
        "type": "Point",
        "coordinates": [
          121.0215931,
          14.5591437
        ]
      }
    },
    {
      "type": "Feature",
      "id": "node/433804207",
      "properties": {
        "@id": "node/433804207",
        "addr:city": "Makati",
        "addr:housename": "LPL Manor",
        "addr:housenumber": "116",
        "addr:postcode": "1227",
        "addr:street": "L.P. Leviste",
        "amenity": "restaurant",
        "cuisine": "japanese",
        "name": "Bento box"
      },
      "geometry": {
        "type": "Point",
        "coordinates": [
          121.020453,
          14.5596088
        ]
      }
    },
    {
      "type": "Feature",
      "id": "node/433812830",
      "properties": {
        "@id": "node/433812830",
        "addr:city": "Makati",
        "addr:postcode": "1227",
        "addr:street": "L.P. Leviste",
        "amenity": "restaurant",
        "cuisine": "chicken",
        "name": "KFC",
        "opening_hours": "24/7"
      },
      "geometry": {
        "type": "Point",
        "coordinates": [
          121.0201529,
          14.5601263
        ]
      }
    },
    {
      "type": "Feature",
      "id": "node/436289880",
      "properties": {
        "@id": "node/436289880",
        "addr:city": "Makati",
        "addr:postcode": "1235",
        "addr:street": "Filmore",
        "amenity": "restaurant",
        "name": "Amber Golden Plate Restaurant"
      },
      "geometry": {
        "type": "Point",
        "coordinates": [
          121.0054232,
          14.5573525
        ]
      }
    },
    {
      "type": "Feature",
      "id": "node/441249612",
      "properties": {
        "@id": "node/441249612",
        "addr:city": "Makati",
        "addr:housename": "Patriarch Building",
        "addr:housenumber": "2224",
        "addr:street": "Don Chino Roces Avenue",
        "addr:street:corner": "Don Bosco",
        "amenity": "restaurant",
        "cuisine": "chinese",
        "name": "Lucky Rainbow"
      },
      "geometry": {
        "type": "Point",
        "coordinates": [
          121.0143254,
          14.5479065
        ]
      }
    },
    {
      "type": "Feature",
      "id": "node/442527598",
      "properties": {
        "@id": "node/442527598",
        "amenity": "restaurant",
        "cuisine": "filipino",
        "name": "Kansi House"
      },
      "geometry": {
        "type": "Point",
        "coordinates": [
          121.0087738,
          14.5659569
        ]
      }
    },
    {
      "type": "Feature",
      "id": "node/442527602",
      "properties": {
        "@id": "node/442527602",
        "amenity": "restaurant",
        "name": "Akik Pares"
      },
      "geometry": {
        "type": "Point",
        "coordinates": [
          121.0144607,
          14.5772149
        ]
      }
    },
    {
      "type": "Feature",
      "id": "node/442527609",
      "properties": {
        "@id": "node/442527609",
        "addr:city": "Manila",
        "addr:province": "Metro Manila",
        "amenity": "restaurant",
        "name": "Gary's Restaurant"
      },
      "geometry": {
        "type": "Point",
        "coordinates": [
          120.9872263,
          14.5784728
        ]
      }
    },
    {
      "type": "Feature",
      "id": "node/442527611",
      "properties": {
        "@id": "node/442527611",
        "addr:city": "Manila",
        "addr:province": "Metro Manila",
        "amenity": "restaurant",
        "ele": "6.3700000",
        "name": "Hizon's"
      },
      "geometry": {
        "type": "Point",
        "coordinates": [
          120.9820048,
          14.5789251
        ]
      }
    },
    {
      "type": "Feature",
      "id": "node/442527616",
      "properties": {
        "@id": "node/442527616",
        "addr:city": "Manila",
        "addr:province": "Metro Manila",
        "amenity": "restaurant",
        "name": "LGA Froglegs"
      },
      "geometry": {
        "type": "Point",
        "coordinates": [
          120.977132,
          14.6015023
        ]
      }
    },
    {
      "type": "Feature",
      "id": "node/453023114",
      "properties": {
        "@id": "node/453023114",
        "addr:city": "Makati",
        "addr:housename": "The Columns",
        "addr:street": "Senator Gil Puyat Avenue",
        "addr:street:corner": "Ayala Avenue Extension",
        "amenity": "restaurant",
        "level": "0",
        "name": "Earl's Deli"
      },
      "geometry": {
        "type": "Point",
        "coordinates": [
          121.0163364,
          14.5617484
        ]
      }
    },
    {
      "type": "Feature",
      "id": "node/453023115",
      "properties": {
        "@id": "node/453023115",
        "addr:city": "Makati",
        "addr:housename": "The Columns",
        "addr:street": "Senator Gil Puyat Avenue",
        "addr:street:corner": "Ayala Avenue Extension",
        "amenity": "restaurant",
        "cuisine": "indian",
        "level": "0",
        "name": "New Bombay"
      },
      "geometry": {
        "type": "Point",
        "coordinates": [
          121.015965,
          14.5616692
        ]
      }
    },
    {
      "type": "Feature",
      "id": "node/505062485",
      "properties": {
        "@id": "node/505062485",
        "amenity": "restaurant",
        "name": "Motorista"
      },
      "geometry": {
        "type": "Point",
        "coordinates": [
          121.0053144,
          14.616929
        ]
      }
    },
    {
      "type": "Feature",
      "id": "node/505063115",
      "properties": {
        "@id": "node/505063115",
        "addr:city": "Manila",
        "addr:province": "Metro Manila",
        "amenity": "restaurant",
        "name": "5 Aces"
      },
      "geometry": {
        "type": "Point",
        "coordinates": [
          121.0010228,
          14.6137481
        ]
      }
    },
    {
      "type": "Feature",
      "id": "node/517062550",
      "properties": {
        "@id": "node/517062550",
        "addr:city": "Manila",
        "addr:province": "Metro Manila",
        "amenity": "restaurant",
        "cuisine": "japanese",
        "name": "Ichiban-ya"
      },
      "geometry": {
        "type": "Point",
        "coordinates": [
          120.9858336,
          14.5670168
        ]
      }
    },
    {
      "type": "Feature",
      "id": "node/517062562",
      "properties": {
        "@id": "node/517062562",
        "amenity": "restaurant",
        "cuisine": "japanese",
        "name": "Akira Ramen"
      },
      "geometry": {
        "type": "Point",
        "coordinates": [
          120.9900736,
          14.5521298
        ]
      }
    },
    {
      "type": "Feature",
      "id": "node/517062612",
      "properties": {
        "@id": "node/517062612",
        "addr:city": "Pasay",
        "addr:street": "Senator Gil Puyat Avenue",
        "amenity": "restaurant",
        "cuisine": "japanese",
        "name": "Nemoto Restaurant",
        "name:en": "Nemoto Restaurant",
        "name:ja": "ねもとレストラン"
      },
      "geometry": {
        "type": "Point",
        "coordinates": [
          120.9981074,
          14.5546388
        ]
      }
    },
    {
      "type": "Feature",
      "id": "node/530639894",
      "properties": {
        "@id": "node/530639894",
        "addr:city": "Manila",
        "addr:province": "Metro Manila",
        "amenity": "restaurant",
        "name": "Bellagio Square (Several Restaurants)"
      },
      "geometry": {
        "type": "Point",
        "coordinates": [
          120.9850323,
          14.5740859
        ]
      }
    },
    {
      "type": "Feature",
      "id": "node/582982850",
      "properties": {
        "@id": "node/582982850",
        "amenity": "restaurant",
        "ele": "6.3700000",
        "name": "Bulaluhan sa N. Ramirez"
      },
      "geometry": {
        "type": "Point",
        "coordinates": [
          121.0050029,
          14.6146732
        ]
      }
    },
    {
      "type": "Feature",
      "id": "node/585230912",
      "properties": {
        "@id": "node/585230912",
        "addr:city": "Manila",
        "addr:province": "Metro Manila",
        "amenity": "restaurant",
        "name": "Norma's Store"
      },
      "geometry": {
        "type": "Point",
        "coordinates": [
          121.003949,
          14.60945
        ]
      }
    },
    {
      "type": "Feature",
      "id": "node/615141138",
      "properties": {
        "@id": "node/615141138",
        "addr:city": "Manila",
        "addr:province": "Metro Manila",
        "addr:street": "Pedro Gil",
        "amenity": "restaurant",
        "cuisine": "asian",
        "name": "Ci-Fu Restaurant"
      },
      "geometry": {
        "type": "Point",
        "coordinates": [
          120.9851091,
          14.5746524
        ]
      }
    },
    {
      "type": "Feature",
      "id": "node/615142299",
      "properties": {
        "@id": "node/615142299",
        "addr:city": "Manila",
        "addr:housename": "Robinsons Place Manila",
        "addr:province": "Metro Manila",
        "addr:street": "Pedro Gil",
        "amenity": "restaurant",
        "name": "Mo Jo"
      },
      "geometry": {
        "type": "Point",
        "coordinates": [
          120.9840574,
          14.5744983
        ]
      }
    },
    {
      "type": "Feature",
      "id": "node/618671230",
      "properties": {
        "@id": "node/618671230",
        "addr:city": "Makati",
        "addr:housename": "Ayala Museum",
        "addr:street": "Makati Avenue",
        "addr:street:corner": "Dela Rosa",
        "alt_name": "Ayala Museum Cafe",
        "amenity": "restaurant",
        "name": "Museum Café",
        "postal_code": "1228"
      },
      "geometry": {
        "type": "Point",
        "coordinates": [
          121.0232446,
          14.5533984
        ]
      }
    },
    {
      "type": "Feature",
      "id": "node/647767266",
      "properties": {
        "@id": "node/647767266",
        "addr:city": "Manila",
        "addr:province": "Metro Manila",
        "amenity": "restaurant",
        "cuisine": "seafood",
        "name": "Green Seas Seafood"
      },
      "geometry": {
        "type": "Point",
        "coordinates": [
          120.9781158,
          14.5986994
        ]
      }
    },
    {
      "type": "Feature",
      "id": "node/649997112",
      "properties": {
        "@id": "node/649997112",
        "addr:city": "Manila",
        "addr:province": "Metro Manila",
        "amenity": "restaurant",
        "name": "Pizza Hut"
      },
      "geometry": {
        "type": "Point",
        "coordinates": [
          120.9790675,
          14.5983889
        ]
      }
    },
    {
      "type": "Feature",
      "id": "node/649997116",
      "properties": {
        "@id": "node/649997116",
        "addr:city": "Manila",
        "addr:province": "Metro Manila",
        "amenity": "restaurant",
        "name": "Poland Hopia"
      },
      "geometry": {
        "type": "Point",
        "coordinates": [
          120.9772393,
          14.5969777
        ]
      }
    },
    {
      "type": "Feature",
      "id": "node/652406290",
      "properties": {
        "@id": "node/652406290",
        "addr:city": "Manila",
        "addr:district": "Binondo",
        "addr:housenumber": "642",
        "addr:province": "Metro Manila",
        "addr:street": "Yuchengco",
        "amenity": "restaurant",
        "cuisine": "chinese",
        "name": "Dong Bei",
        "name:ja": "東北水餃"
      },
      "geometry": {
        "type": "Point",
        "coordinates": [
          120.9752013,
          14.6010993
        ]
      }
    },
    {
      "type": "Feature",
      "id": "node/655184609",
      "properties": {
        "@id": "node/655184609",
        "addr:city": "Manila",
        "addr:province": "Metro Manila",
        "amenity": "restaurant",
        "name": "Kenny Rogers' Roasters"
      },
      "geometry": {
        "type": "Point",
        "coordinates": [
          120.9952101,
          14.5631321
        ]
      }
    },
    {
      "type": "Feature",
      "id": "node/660579289",
      "properties": {
        "@id": "node/660579289",
        "addr:city": "Makati",
        "addr:postcode": "1227",
        "addr:street": "Valero",
        "amenity": "restaurant",
        "name": "Chilli Pepper"
      },
      "geometry": {
        "type": "Point",
        "coordinates": [
          121.0216768,
          14.5584097
        ]
      }
    },
    {
      "type": "Feature",
      "id": "node/660580022",
      "properties": {
        "@id": "node/660580022",
        "addr:city": "Makati",
        "addr:postcode": "1227",
        "addr:street": "H. V. Dela Costa",
        "addr:street:corner": "L.P. Leviste",
        "amenity": "restaurant",
        "name": "Coquina"
      },
      "geometry": {
        "type": "Point",
        "coordinates": [
          121.025235,
          14.5608978
        ]
      }
    },
    {
      "type": "Feature",
      "id": "node/660580023",
      "properties": {
        "@id": "node/660580023",
        "addr:city": "Makati",
        "addr:floor": "G/F",
        "addr:housename": "Aguirre Building",
        "addr:housenumber": "108",
        "addr:postcode": "1227",
        "addr:street": "H. V. Dela Costa",
        "addr:street:corner": "Tordesillas",
        "amenity": "restaurant",
        "cuisine": "japanese",
        "level": "0",
        "name": "Kitaro"
      },
      "geometry": {
        "type": "Point",
        "coordinates": [
          121.024875,
          14.5610788
        ]
      }
    },
    {
      "type": "Feature",
      "id": "node/662711064",
      "properties": {
        "@id": "node/662711064",
        "addr:city": "Manila",
        "addr:province": "Metro Manila",
        "amenity": "restaurant",
        "name": "Chic-Boy"
      },
      "geometry": {
        "type": "Point",
        "coordinates": [
          120.9895388,
          14.5614623
        ]
      }
    },
    {
      "type": "Feature",
      "id": "node/676425276",
      "properties": {
        "@id": "node/676425276",
        "addr:city": "Makati",
        "addr:housename": "PDCP Bank Centre",
        "addr:postcode": "1227",
        "addr:street": "L.P. Leviste",
        "addr:street:corner": "V. A. Rufino",
        "amenity": "restaurant",
        "cuisine": "dessert",
        "name": "Chocolate Fire",
        "website": "http://www.chocolatefire.com/"
      },
      "geometry": {
        "type": "Point",
        "coordinates": [
          121.0199348,
          14.5599057
        ]
      }
    },
    {
      "type": "Feature",
      "id": "node/678987853",
      "properties": {
        "@id": "node/678987853",
        "amenity": "restaurant",
        "name": "Old Swiss Inn"
      },
      "geometry": {
        "type": "Point",
        "coordinates": [
          121.0256044,
          14.5562977
        ]
      }
    },
    {
      "type": "Feature",
      "id": "node/735198925",
      "properties": {
        "@id": "node/735198925",
        "addr:city": "Manila",
        "addr:province": "Metro Manila",
        "amenity": "restaurant",
        "name": "Ilustrado"
      },
      "geometry": {
        "type": "Point",
        "coordinates": [
          120.9774039,
          14.5877867
        ]
      }
    },
    {
      "type": "Feature",
      "id": "node/735198931",
      "properties": {
        "@id": "node/735198931",
        "addr:city": "Manila",
        "addr:province": "Metro Manila",
        "amenity": "restaurant",
        "name": "Patio Victoria - Diana Garden"
      },
      "geometry": {
        "type": "Point",
        "coordinates": [
          120.9767575,
          14.587805
        ]
      }
    },
    {
      "type": "Feature",
      "id": "node/860934975",
      "properties": {
        "@id": "node/860934975",
        "addr:city": "Manila",
        "addr:province": "Metro Manila",
        "addr:street": "Gen. Luna Street",
        "amenity": "restaurant",
        "name": "Barbara's"
      },
      "geometry": {
        "type": "Point",
        "coordinates": [
          120.9757727,
          14.5890232
        ]
      }
    },
    {
      "type": "Feature",
      "id": "node/884248729",
      "properties": {
        "@id": "node/884248729",
        "addr:city": "Manila",
        "addr:province": "Metro Manila",
        "amenity": "restaurant",
        "name": "Pancake House"
      },
      "geometry": {
        "type": "Point",
        "coordinates": [
          120.984218,
          14.5823964
        ]
      }
    },
    {
      "type": "Feature",
      "id": "node/921882963",
      "properties": {
        "@id": "node/921882963",
        "amenity": "restaurant",
        "name": "Nihon Bashitei"
      },
      "geometry": {
        "type": "Point",
        "coordinates": [
          121.0156836,
          14.5512067
        ]
      }
    },
    {
      "type": "Feature",
      "id": "node/926666285",
      "properties": {
        "@id": "node/926666285",
        "addr:city": "Pasay",
        "amenity": "restaurant",
        "name": "Singing Cook And Waitresses"
      },
      "geometry": {
        "type": "Point",
        "coordinates": [
          120.9901272,
          14.5518129
        ]
      }
    },
    {
      "type": "Feature",
      "id": "node/927718500",
      "properties": {
        "@id": "node/927718500",
        "amenity": "restaurant",
        "name": "Bob's Halu-halo"
      },
      "geometry": {
        "type": "Point",
        "coordinates": [
          121.0157107,
          14.6175625
        ]
      }
    },
    {
      "type": "Feature",
      "id": "node/954779163",
      "properties": {
        "@id": "node/954779163",
        "addr:city": "Makati",
        "addr:housename": "The Columns",
        "addr:street": "Senator Gil Puyat Avenue",
        "addr:street:corner": "Ayala Avenue Extension",
        "amenity": "restaurant",
        "cuisine": "filipino",
        "level": "0",
        "name": "Rekado Atbp."
      },
      "geometry": {
        "type": "Point",
        "coordinates": [
          121.016417,
          14.5618457
        ]
      }
    },
    {
      "type": "Feature",
      "id": "node/990984192",
      "properties": {
        "@id": "node/990984192",
        "addr:city": "Makati",
        "addr:floor": "G/F",
        "addr:housename": "Paseo Parkview Suites",
        "addr:street": "Valero",
        "addr:street:corner": "Sedeño",
        "amenity": "restaurant",
        "level": "0",
        "name": "Bowler Restaurant"
      },
      "geometry": {
        "type": "Point",
        "coordinates": [
          121.0225467,
          14.5586919
        ]
      }
    },
    {
      "type": "Feature",
      "id": "node/997416584",
      "properties": {
        "@id": "node/997416584",
        "addr:city": "Manila",
        "addr:province": "Metro Manila",
        "amenity": "restaurant",
        "name": "Club Intramuros"
      },
      "geometry": {
        "type": "Point",
        "coordinates": [
          120.9703747,
          14.593005
        ]
      }
    },
    {
      "type": "Feature",
      "id": "node/1000832606",
      "properties": {
        "@id": "node/1000832606",
        "addr:city": "Makati",
        "addr:floor": "G/F",
        "addr:housename": "The Valero Tower",
        "addr:housenumber": "122",
        "addr:street": "Valero",
        "amenity": "restaurant",
        "cuisine": "pizza",
        "level": "0",
        "name": "Shakey's"
      },
      "geometry": {
        "type": "Point",
        "coordinates": [
          121.0202042,
          14.5590417
        ]
      }
    },
    {
      "type": "Feature",
      "id": "node/1013373937",
      "properties": {
        "@id": "node/1013373937",
        "addr:city": "Makati",
        "addr:street": "Ayala Triangle Gardens",
        "amenity": "restaurant",
        "cuisine": "asian",
        "name": "Wee Nam Kee",
        "source": "photogeotag & garmin76csx"
      },
      "geometry": {
        "type": "Point",
        "coordinates": [
          121.0240192,
          14.5563628
        ]
      }
    },
    {
      "type": "Feature",
      "id": "node/1013373940",
      "properties": {
        "@id": "node/1013373940",
        "addr:city": "Makati",
        "addr:street": "Ayala Triangle Gardens",
        "amenity": "restaurant",
        "name": "BonChon Chicken",
        "source": "photogeotag & garmin76csx"
      },
      "geometry": {
        "type": "Point",
        "coordinates": [
          121.0237307,
          14.5564987
        ]
      }
    },
    {
      "type": "Feature",
      "id": "node/1015956715",
      "properties": {
        "@id": "node/1015956715",
        "amenity": "restaurant",
        "name": "Wilfrido's"
      },
      "geometry": {
        "type": "Point",
        "coordinates": [
          121.0048567,
          14.5567852
        ]
      }
    },
    {
      "type": "Feature",
      "id": "node/1034880097",
      "properties": {
        "@id": "node/1034880097",
        "addr:city": "Manila",
        "addr:province": "Metro Manila",
        "amenity": "restaurant",
        "name": "Max's"
      },
      "geometry": {
        "type": "Point",
        "coordinates": [
          120.9738361,
          14.5936227
        ]
      }
    },
    {
      "type": "Feature",
      "id": "node/1037130657",
      "properties": {
        "@id": "node/1037130657",
        "addr:city": "Manila",
        "addr:postcode": "1005",
        "addr:province": "Metro Manila",
        "addr:street:corner": "Dr. Concepcion A. Aguila",
        "amenity": "restaurant",
        "branch": "Malacañang",
        "name": "Max's Restaurant",
        "opening_hours": "Mo-Su 7:00-22:00"
      },
      "geometry": {
        "type": "Point",
        "coordinates": [
          120.9977531,
          14.5993157
        ]
      }
    },
    {
      "type": "Feature",
      "id": "node/1038225312",
      "properties": {
        "@id": "node/1038225312",
        "addr:city": "Manila",
        "addr:province": "Metro Manila",
        "amenity": "restaurant",
        "name": "Adams Canteen"
      },
      "geometry": {
        "type": "Point",
        "coordinates": [
          120.9779929,
          14.5889432
        ]
      }
    },
    {
      "type": "Feature",
      "id": "node/1038225358",
      "properties": {
        "@id": "node/1038225358",
        "addr:city": "Manila",
        "addr:province": "Metro Manila",
        "addr:street": "Cabildo St.",
        "amenity": "restaurant",
        "name": "Casa Marinero II"
      },
      "geometry": {
        "type": "Point",
        "coordinates": [
          120.9757915,
          14.5891023
        ]
      }
    },
    {
      "type": "Feature",
      "id": "node/1038283667",
      "properties": {
        "@id": "node/1038283667",
        "addr:city": "Manila",
        "addr:province": "Metro Manila",
        "amenity": "restaurant",
        "name": "Casa Marinero"
      },
      "geometry": {
        "type": "Point",
        "coordinates": [
          120.9757526,
          14.5889191
        ]
      }
    },
    {
      "type": "Feature",
      "id": "node/1040417921",
      "properties": {
        "@id": "node/1040417921",
        "addr:city": "Manila",
        "addr:province": "Metro Manila",
        "amenity": "restaurant",
        "name": "Emerald Green"
      },
      "geometry": {
        "type": "Point",
        "coordinates": [
          120.9791049,
          14.5774913
        ]
      }
    },
    {
      "type": "Feature",
      "id": "node/1041008722",
      "properties": {
        "@id": "node/1041008722",
        "addr:city": "Manila",
        "addr:province": "Metro Manila",
        "amenity": "restaurant",
        "name": "UIP Restaurant"
      },
      "geometry": {
        "type": "Point",
        "coordinates": [
          120.9755644,
          14.578776
        ]
      }
    },
    {
      "type": "Feature",
      "id": "node/1041008772",
      "properties": {
        "@id": "node/1041008772",
        "addr:city": "Manila",
        "addr:province": "Metro Manila",
        "amenity": "restaurant",
        "name": "Blue Bay"
      },
      "geometry": {
        "type": "Point",
        "coordinates": [
          120.9753372,
          14.5786884
        ]
      }
    },
    {
      "type": "Feature",
      "id": "node/1041262699",
      "properties": {
        "@id": "node/1041262699",
        "addr:city": "Manila",
        "addr:province": "Metro Manila",
        "amenity": "restaurant",
        "name": "Dad's, Kamayan, Saisaki"
      },
      "geometry": {
        "type": "Point",
        "coordinates": [
          120.981741,
          14.5778047
        ]
      }
    },
    {
      "type": "Feature",
      "id": "node/1041263114",
      "properties": {
        "@id": "node/1041263114",
        "addr:city": "Manila",
        "addr:province": "Metro Manila",
        "amenity": "restaurant",
        "name": "Kashmir"
      },
      "geometry": {
        "type": "Point",
        "coordinates": [
          120.9817879,
          14.5778254
        ]
      }
    },
    {
      "type": "Feature",
      "id": "node/1041287113",
      "properties": {
        "@id": "node/1041287113",
        "addr:city": "Manila",
        "addr:province": "Metro Manila",
        "amenity": "restaurant",
        "name": "Barrio Fiesta"
      },
      "geometry": {
        "type": "Point",
        "coordinates": [
          120.9786259,
          14.5791117
        ]
      }
    },
    {
      "type": "Feature",
      "id": "node/1041297478",
      "properties": {
        "@id": "node/1041297478",
        "addr:city": "Manila",
        "addr:province": "Metro Manila",
        "amenity": "restaurant",
        "name": "Big Mama's"
      },
      "geometry": {
        "type": "Point",
        "coordinates": [
          120.9796801,
          14.5777593
        ]
      }
    },
    {
      "type": "Feature",
      "id": "node/1044814346",
      "properties": {
        "@id": "node/1044814346",
        "addr:city": "Manila",
        "addr:province": "Metro Manila",
        "amenity": "restaurant",
        "name": "Tempura Japanese Grill"
      },
      "geometry": {
        "type": "Point",
        "coordinates": [
          120.9811634,
          14.5804892
        ]
      }
    },
    {
      "type": "Feature",
      "id": "node/1044814361",
      "properties": {
        "@id": "node/1044814361",
        "addr:city": "Manila",
        "addr:province": "Metro Manila",
        "amenity": "restaurant",
        "name": "Alex III Restaurant Grill"
      },
      "geometry": {
        "type": "Point",
        "coordinates": [
          120.9811044,
          14.5804632
        ]
      }
    },
    {
      "type": "Feature",
      "id": "node/1044893570",
      "properties": {
        "@id": "node/1044893570",
        "addr:city": "Manila",
        "addr:province": "Metro Manila",
        "amenity": "restaurant",
        "name": "Rico's Inn Restaurant"
      },
      "geometry": {
        "type": "Point",
        "coordinates": [
          120.9800691,
          14.5802763
        ]
      }
    },
    {
      "type": "Feature",
      "id": "node/1044893580",
      "properties": {
        "@id": "node/1044893580",
        "addr:city": "Manila",
        "addr:province": "Metro Manila",
        "amenity": "restaurant",
        "name": "Mr. Peter Lee's Hong Kong Tea House"
      },
      "geometry": {
        "type": "Point",
        "coordinates": [
          120.9800128,
          14.5803854
        ]
      }
    },
    {
      "type": "Feature",
      "id": "node/1044973243",
      "properties": {
        "@id": "node/1044973243",
        "addr:city": "Manila",
        "addr:province": "Metro Manila",
        "addr:street": "T.M. Kalaw",
        "amenity": "restaurant",
        "name": "Golden Fortune Seafood Restaurant"
      },
      "geometry": {
        "type": "Point",
        "coordinates": [
          120.9830729,
          14.5827351
        ]
      }
    },
    {
      "type": "Feature",
      "id": "node/1045106946",
      "properties": {
        "@id": "node/1045106946",
        "addr:city": "Manila",
        "addr:province": "Metro Manila",
        "amenity": "restaurant",
        "name": "Max's"
      },
      "geometry": {
        "type": "Point",
        "coordinates": [
          120.9819496,
          14.5805007
        ]
      }
    },
    {
      "type": "Feature",
      "id": "node/1045302722",
      "properties": {
        "@id": "node/1045302722",
        "addr:city": "Manila",
        "addr:province": "Metro Manila",
        "amenity": "restaurant",
        "name": "Pancit ng Taga Malabon"
      },
      "geometry": {
        "type": "Point",
        "coordinates": [
          120.9816224,
          14.581147
        ]
      }
    },
    {
      "type": "Feature",
      "id": "node/1047258346",
      "properties": {
        "@id": "node/1047258346",
        "addr:city": "Manila",
        "addr:province": "Metro Manila",
        "amenity": "restaurant",
        "name": "Elvinario's Resto Bar"
      },
      "geometry": {
        "type": "Point",
        "coordinates": [
          120.9829086,
          14.578828
        ]
      }
    },
    {
      "type": "Feature",
      "id": "node/1047271324",
      "properties": {
        "@id": "node/1047271324",
        "addr:city": "Manila",
        "addr:province": "Metro Manila",
        "amenity": "restaurant",
        "name": "Cowboy Grill Express"
      },
      "geometry": {
        "type": "Point",
        "coordinates": [
          120.9816667,
          14.5806867
        ]
      }
    },
    {
      "type": "Feature",
      "id": "node/1047271337",
      "properties": {
        "@id": "node/1047271337",
        "addr:city": "Manila",
        "addr:province": "Metro Manila",
        "amenity": "restaurant",
        "name": "Shakey's"
      },
      "geometry": {
        "type": "Point",
        "coordinates": [
          120.9815514,
          14.5806321
        ]
      }
    },
    {
      "type": "Feature",
      "id": "node/1047277477",
      "properties": {
        "@id": "node/1047277477",
        "addr:city": "Manila",
        "addr:province": "Metro Manila",
        "amenity": "restaurant",
        "name": "Cafe France",
        "opening_hours": "24/7"
      },
      "geometry": {
        "type": "Point",
        "coordinates": [
          120.981833,
          14.580832
        ]
      }
    },
    {
      "type": "Feature",
      "id": "node/1047281219",
      "properties": {
        "@id": "node/1047281219",
        "addr:city": "Manila",
        "addr:province": "Metro Manila",
        "amenity": "restaurant",
        "name": "Arquiza Seafood and Hotpot Restaurant"
      },
      "geometry": {
        "type": "Point",
        "coordinates": [
          120.9811678,
          14.5783919
        ]
      }
    },
    {
      "type": "Feature",
      "id": "node/1047356565",
      "properties": {
        "@id": "node/1047356565",
        "addr:city": "Manila",
        "addr:province": "Metro Manila",
        "amenity": "restaurant",
        "name": "May Sum Restaurant"
      },
      "geometry": {
        "type": "Point",
        "coordinates": [
          120.9792604,
          14.5798224
        ]
      }
    },
    {
      "type": "Feature",
      "id": "node/1047524548",
      "properties": {
        "@id": "node/1047524548",
        "addr:city": "Manila",
        "addr:province": "Metro Manila",
        "amenity": "restaurant",
        "name": "Hobbit Haus"
      },
      "geometry": {
        "type": "Point",
        "coordinates": [
          120.9802716,
          14.5776756
        ]
      }
    },
    {
      "type": "Feature",
      "id": "node/1054550017",
      "properties": {
        "@id": "node/1054550017",
        "addr:city": "Manila",
        "addr:province": "Metro Manila",
        "amenity": "restaurant",
        "name": "Binalot"
      },
      "geometry": {
        "type": "Point",
        "coordinates": [
          120.9733723,
          14.5931848
        ]
      }
    },
    {
      "type": "Feature",
      "id": "node/1054550021",
      "properties": {
        "@id": "node/1054550021",
        "addr:city": "Manila",
        "addr:province": "Metro Manila",
        "amenity": "restaurant",
        "name": "Bacolod Chicken Inasal"
      },
      "geometry": {
        "type": "Point",
        "coordinates": [
          120.9734688,
          14.5932575
        ]
      }
    },
    {
      "type": "Feature",
      "id": "node/1054550149",
      "properties": {
        "@id": "node/1054550149",
        "addr:city": "Manila",
        "addr:province": "Metro Manila",
        "amenity": "restaurant",
        "name": "Patio de Conchita"
      },
      "geometry": {
        "type": "Point",
        "coordinates": [
          120.9743462,
          14.5918481
        ]
      }
    },
    {
      "type": "Feature",
      "id": "node/1055759064",
      "properties": {
        "@id": "node/1055759064",
        "addr:city": "Manila",
        "addr:province": "Metro Manila",
        "amenity": "restaurant",
        "name": "Pod"
      },
      "geometry": {
        "type": "Point",
        "coordinates": [
          120.9763904,
          14.5939491
        ]
      }
    },
    {
      "type": "Feature",
      "id": "node/1058992597",
      "properties": {
        "@id": "node/1058992597",
        "addr:city": "Manila",
        "addr:province": "Metro Manila",
        "amenity": "restaurant",
        "name": "Old Swiss Inn"
      },
      "geometry": {
        "type": "Point",
        "coordinates": [
          120.9891104,
          14.5806321
        ]
      }
    },
    {
      "type": "Feature",
      "id": "node/1068757279",
      "properties": {
        "@id": "node/1068757279",
        "addr:city": "Makati",
        "addr:street": "Ayala Triangle Gardens",
        "amenity": "restaurant",
        "name": "Caramia Gelateria",
        "source": "photogeotag & garmin76csx"
      },
      "geometry": {
        "type": "Point",
        "coordinates": [
          121.0243688,
          14.5562048
        ]
      }
    },
    {
      "type": "Feature",
      "id": "node/1068757281",
      "properties": {
        "@id": "node/1068757281",
        "addr:city": "Makati",
        "addr:street": "Ayala Triangle Gardens",
        "amenity": "restaurant",
        "cuisine": "filipino",
        "name": "Kanin Club",
        "source": "photogeotag & garmin76csx"
      },
      "geometry": {
        "type": "Point",
        "coordinates": [
          121.0241951,
          14.5563073
        ]
      }
    },
    {
      "type": "Feature",
      "id": "node/1068757285",
      "properties": {
        "@id": "node/1068757285",
        "addr:city": "Makati",
        "addr:street": "Ayala Triangle Gardens",
        "amenity": "restaurant",
        "cuisine": "italian",
        "name": "Amici",
        "source": "photogeotag & garmin76csx"
      },
      "geometry": {
        "type": "Point",
        "coordinates": [
          121.0243152,
          14.5562343
        ]
      }
    },
    {
      "type": "Feature",
      "id": "node/1068757286",
      "properties": {
        "@id": "node/1068757286",
        "addr:city": "Makati",
        "addr:street": "Ayala Triangle Gardens",
        "amenity": "restaurant",
        "cuisine": "international",
        "name": "Poco Deli"
      },
      "geometry": {
        "type": "Point",
        "coordinates": [
          121.0240923,
          14.5563158
        ]
      }
    },
    {
      "type": "Feature",
      "id": "node/1068757289",
      "properties": {
        "@id": "node/1068757289",
        "addr:city": "Makati",
        "addr:street": "Ayala Triangle Gardens",
        "amenity": "restaurant",
        "cuisine": "japanese",
        "name": "Omakase",
        "source": "photogeotag & garmin76csx"
      },
      "geometry": {
        "type": "Point",
        "coordinates": [
          121.0242552,
          14.5562706
        ]
      }
    },
    {
      "type": "Feature",
      "id": "node/1068757292",
      "properties": {
        "@id": "node/1068757292",
        "addr:city": "Makati",
        "addr:street": "Ayala Triangle Gardens",
        "amenity": "restaurant",
        "name": "Banapple",
        "source": "photogeotag & garmin76csx"
      },
      "geometry": {
        "type": "Point",
        "coordinates": [
          121.0235829,
          14.5565596
        ]
      }
    },
    {
      "type": "Feature",
      "id": "node/1068757293",
      "properties": {
        "@id": "node/1068757293",
        "addr:city": "Makati",
        "addr:street": "Ayala Triangle Gardens",
        "amenity": "restaurant",
        "name": "Momo Cafe",
        "source": "photogeotag & garmin76csx"
      },
      "geometry": {
        "type": "Point",
        "coordinates": [
          121.0238796,
          14.5564374
        ]
      }
    },
    {
      "type": "Feature",
      "id": "node/1068757294",
      "properties": {
        "@id": "node/1068757294",
        "addr:city": "Makati",
        "addr:street": "Ayala Triangle Gardens",
        "amenity": "restaurant",
        "name": "Golden Spoon - Frozen Yogurt",
        "source": "photogeotag & garmin76csx"
      },
      "geometry": {
        "type": "Point",
        "coordinates": [
          121.0235111,
          14.5565891
        ]
      }
    },
    {
      "type": "Feature",
      "id": "node/1080123621",
      "properties": {
        "@id": "node/1080123621",
        "addr:city": "Pasay",
        "amenity": "restaurant",
        "name": "Sky Garden"
      },
      "geometry": {
        "type": "Point",
        "coordinates": [
          120.9797586,
          14.5564819
        ]
      }
    },
    {
      "type": "Feature",
      "id": "node/1080132023",
      "properties": {
        "@id": "node/1080132023",
        "addr:city": "Pasay",
        "addr:street": "Magadalena Jalandoni",
        "amenity": "restaurant",
        "cuisine": "seafood",
        "name": "Legend Seafood Restaurant"
      },
      "geometry": {
        "type": "Point",
        "coordinates": [
          120.986271,
          14.5531167
        ]
      }
    },
    {
      "type": "Feature",
      "id": "node/1110054636",
      "properties": {
        "@id": "node/1110054636",
        "amenity": "restaurant",
        "cuisine": "asian",
        "name": "Heaven's Barbeque"
      },
      "geometry": {
        "type": "Point",
        "coordinates": [
          121.0195409,
          14.5627102
        ]
      }
    },
    {
      "type": "Feature",
      "id": "node/1110054637",
      "properties": {
        "@id": "node/1110054637",
        "amenity": "restaurant",
        "cuisine": "asian",
        "name": "JT's Manukan"
      },
      "geometry": {
        "type": "Point",
        "coordinates": [
          121.0190096,
          14.5627362
        ]
      }
    },
    {
      "type": "Feature",
      "id": "node/1110054638",
      "properties": {
        "@id": "node/1110054638",
        "amenity": "restaurant",
        "cuisine": "asian",
        "name": "Stoops"
      },
      "geometry": {
        "type": "Point",
        "coordinates": [
          121.0191222,
          14.5627206
        ]
      }
    },
    {
      "type": "Feature",
      "id": "node/1110117078",
      "properties": {
        "@id": "node/1110117078",
        "addr:city": "Makati",
        "addr:housename": "One Lafayette Square",
        "addr:housenumber": "132",
        "addr:postcode": "1227",
        "addr:street": "L.P. Leviste",
        "amenity": "restaurant",
        "name": "Terry's Selection"
      },
      "geometry": {
        "type": "Point",
        "coordinates": [
          121.022018,
          14.5592284
        ]
      }
    },
    {
      "type": "Feature",
      "id": "node/1110129904",
      "properties": {
        "@id": "node/1110129904",
        "addr:city": "Makati",
        "addr:full": "G/F, Classica I Condominium, 112 H.V. Dela Costa St. Salcedo VillageMakati City, Metro Manila, Philippines",
        "addr:postcode": "1227",
        "amenity": "restaurant",
        "name": "Alexa's Deli Cafe and Wine Bar"
      },
      "geometry": {
        "type": "Point",
        "coordinates": [
          121.0241683,
          14.5613589
        ]
      }
    },
    {
      "type": "Feature",
      "id": "node/1110135696",
      "properties": {
        "@id": "node/1110135696",
        "addr:city": "Makati",
        "addr:floor": "2/F",
        "addr:housename": "Antel Corporate Center",
        "addr:housenumber": "121",
        "addr:street": "Valero",
        "amenity": "restaurant",
        "cuisine": "italian",
        "level": "1",
        "name": "Il Ponticello"
      },
      "geometry": {
        "type": "Point",
        "coordinates": [
          121.0198691,
          14.5588805
        ]
      }
    },
    {
      "type": "Feature",
      "id": "node/1110136388",
      "properties": {
        "@id": "node/1110136388",
        "addr:city": "Makati",
        "addr:full": "2/F 88 Corporate Plaza 88 Sedeno St. cor. Valero St., Salcedo Village Makati, Metro Manila, Philippines",
        "amenity": "restaurant",
        "name": "Tsumura Sushi Bar and Restaurant"
      },
      "geometry": {
        "type": "Point",
        "coordinates": [
          121.0223568,
          14.5581794
        ]
      }
    },
    {
      "type": "Feature",
      "id": "node/1110139317",
      "properties": {
        "@id": "node/1110139317",
        "addr:city": "Makati",
        "addr:floor": "G/F",
        "addr:housename": "Paseo Parkview Suites",
        "addr:street": "Valero",
        "addr:street:corner": "Sedeño",
        "amenity": "restaurant",
        "level": "0",
        "name": "La Cuisine Francaise"
      },
      "geometry": {
        "type": "Point",
        "coordinates": [
          121.0225285,
          14.558768
        ]
      }
    },
    {
      "type": "Feature",
      "id": "node/1110141031",
      "properties": {
        "@id": "node/1110141031",
        "addr:city": "Makati",
        "addr:housename": "The Picasso",
        "addr:housenumber": "119",
        "addr:postcode": "1227",
        "addr:street": "L.P. Leviste",
        "amenity": "restaurant",
        "name": "Pablo",
        "website": "http://www.picassomakati.com/pablo-restaurant/"
      },
      "geometry": {
        "type": "Point",
        "coordinates": [
          121.0240742,
          14.5599813
        ]
      }
    },
    {
      "type": "Feature",
      "id": "node/1110149071",
      "properties": {
        "@id": "node/1110149071",
        "addr:city": "Makati",
        "addr:full": "G/F Classica Tower, 114 H.V Dela Costa St., Salcedo VillageMakati City, Metro Manila, Philippines",
        "addr:postcode": "1227",
        "amenity": "restaurant",
        "name": "Bravo! Ristorante Italiano"
      },
      "geometry": {
        "type": "Point",
        "coordinates": [
          121.0238189,
          14.5614227
        ]
      }
    },
    {
      "type": "Feature",
      "id": "node/1110150749",
      "properties": {
        "@id": "node/1110150749",
        "addr:city": "Makati",
        "addr:housename": "Global Enterprise",
        "addr:housenumber": "138",
        "addr:postcode": "1227",
        "addr:street": "H. V. Dela Costa",
        "amenity": "restaurant",
        "name": "Malcolm's"
      },
      "geometry": {
        "type": "Point",
        "coordinates": [
          121.0210627,
          14.5611744
        ]
      }
    },
    {
      "type": "Feature",
      "id": "node/1110174232",
      "properties": {
        "@id": "node/1110174232",
        "addr:city": "Makati",
        "addr:housename": "Greenbelt 2",
        "addr:street": "Esperanza",
        "amenity": "restaurant",
        "cuisine": "italian",
        "name": "Italianni's"
      },
      "geometry": {
        "type": "Point",
        "coordinates": [
          121.0199199,
          14.5521395
        ]
      }
    },
    {
      "type": "Feature",
      "id": "node/1124655480",
      "properties": {
        "@id": "node/1124655480",
        "addr:city": "Manila",
        "addr:province": "Metro Manila",
        "addr:street": "Quezon Boulevard",
        "amenity": "restaurant",
        "name": "Globe Lumpia"
      },
      "geometry": {
        "type": "Point",
        "coordinates": [
          120.984235,
          14.6005124
        ]
      }
    },
    {
      "type": "Feature",
      "id": "node/1134951766",
      "properties": {
        "@id": "node/1134951766",
        "amenity": "restaurant",
        "name": "Reyes Barbeque"
      },
      "geometry": {
        "type": "Point",
        "coordinates": [
          121.0229829,
          14.5577881
        ]
      }
    },
    {
      "type": "Feature",
      "id": "node/1134951770",
      "properties": {
        "@id": "node/1134951770",
        "addr:city": "Makati",
        "addr:housename": "Valero Carpark 2",
        "addr:housenumber": "149",
        "addr:postcode": "1227",
        "addr:street": "Valero",
        "amenity": "restaurant",
        "cuisine": "regional",
        "name": "Max's"
      },
      "geometry": {
        "type": "Point",
        "coordinates": [
          121.0240204,
          14.5587127
        ]
      }
    },
    {
      "type": "Feature",
      "id": "node/1134951772",
      "properties": {
        "@id": "node/1134951772",
        "addr:housename": "Equitable Bank Tower",
        "amenity": "restaurant",
        "cuisine": "asian",
        "name": "Dell's Foodhall",
        "opening_hours": "Mo-Th 09:00-12:00; Fr 09:00-11:00"
      },
      "geometry": {
        "type": "Point",
        "coordinates": [
          121.0238983,
          14.5579617
        ]
      }
    },
    {
      "type": "Feature",
      "id": "node/1134951780",
      "properties": {
        "@id": "node/1134951780",
        "amenity": "restaurant",
        "cuisine": "vietnamese",
        "name": "Pho Hoa"
      },
      "geometry": {
        "type": "Point",
        "coordinates": [
          121.0229454,
          14.557866
        ]
      }
    },
    {
      "type": "Feature",
      "id": "node/1134951788",
      "properties": {
        "@id": "node/1134951788",
        "addr:city": "Makati",
        "addr:floor": "2/F",
        "addr:housename": "Paseo Center",
        "addr:housenumber": "8757",
        "addr:street": "Paseo de Roxas",
        "addr:street:corner": "Sedeño",
        "amenity": "restaurant",
        "cuisine": "chicken",
        "level": "1",
        "name": "Bacolod Chicken Inasal"
      },
      "geometry": {
        "type": "Point",
        "coordinates": [
          121.0230663,
          14.5576466
        ]
      }
    },
    {
      "type": "Feature",
      "id": "node/1134951794",
      "properties": {
        "@id": "node/1134951794",
        "addr:housename": "B.A. Lepanto",
        "amenity": "restaurant",
        "name": "Galleon Food Gallery"
      },
      "geometry": {
        "type": "Point",
        "coordinates": [
          121.024267,
          14.5582714
        ]
      }
    },
    {
      "type": "Feature",
      "id": "node/1134951802",
      "properties": {
        "@id": "node/1134951802",
        "addr:city": "Makati",
        "addr:housename": "Valero Carpark 2",
        "addr:housenumber": "149",
        "addr:street": "Valero",
        "amenity": "restaurant",
        "cuisine": "asian",
        "name": "Good Mixes"
      },
      "geometry": {
        "type": "Point",
        "coordinates": [
          121.0239425,
          14.5584839
        ]
      }
    },
    {
      "type": "Feature",
      "id": "node/1144962894",
      "properties": {
        "@id": "node/1144962894",
        "addr:city": "Makati",
        "addr:postcode": "1234",
        "addr:street": "President Sergio Osmena Highway",
        "amenity": "restaurant",
        "cuisine": "chicken",
        "name": "Mang Inasal"
      },
      "geometry": {
        "type": "Point",
        "coordinates": [
          121.0076251,
          14.5567864
        ]
      }
    },
    {
      "type": "Feature",
      "id": "node/1145089941",
      "properties": {
        "@id": "node/1145089941",
        "amenity": "restaurant",
        "cuisine": "international",
        "name": "Top of the Citi"
      },
      "geometry": {
        "type": "Point",
        "coordinates": [
          121.0251115,
          14.558974
        ]
      }
    },
    {
      "type": "Feature",
      "id": "node/1145089944",
      "properties": {
        "@id": "node/1145089944",
        "amenity": "restaurant",
        "name": "Cravings Restaurant"
      },
      "geometry": {
        "type": "Point",
        "coordinates": [
          121.0257904,
          14.5598903
        ]
      }
    },
    {
      "type": "Feature",
      "id": "node/1146566717",
      "properties": {
        "@id": "node/1146566717",
        "amenity": "restaurant",
        "cuisine": "pizza",
        "name": "Project Pie"
      },
      "geometry": {
        "type": "Point",
        "coordinates": [
          121.0258368,
          14.559949
        ]
      }
    },
    {
      "type": "Feature",
      "id": "node/1146576441",
      "properties": {
        "@id": "node/1146576441",
        "amenity": "restaurant",
        "cuisine": "fish;sandwich;hotdog;breakfast;ice_cream;coffee_shop;american;pasta;pancake;filipino;chicken",
        "name": "Sugarhouse"
      },
      "geometry": {
        "type": "Point",
        "coordinates": [
          121.0189418,
          14.6062195
        ]
      }
    },
    {
      "type": "Feature",
      "id": "node/1146576444",
      "properties": {
        "@id": "node/1146576444",
        "amenity": "restaurant",
        "cuisine": "chinese",
        "name": "Mann Hann"
      },
      "geometry": {
        "type": "Point",
        "coordinates": [
          121.0183912,
          14.6062654
        ]
      }
    },
    {
      "type": "Feature",
      "id": "node/1179313582",
      "properties": {
        "@id": "node/1179313582",
        "addr:city": "Pasay",
        "amenity": "restaurant",
        "cuisine": "chinese",
        "name": "Gloriamaris"
      },
      "geometry": {
        "type": "Point",
        "coordinates": [
          120.9787977,
          14.5558719
        ]
      }
    },
    {
      "type": "Feature",
      "id": "node/1182501986",
      "properties": {
        "@id": "node/1182501986",
        "addr:city": "Makati",
        "addr:housename": "Pacific Star Building",
        "addr:street": "Senator Gil Puyat Avenue",
        "addr:street:corner": "Makati Avenue",
        "amenity": "restaurant",
        "cuisine": "chinese",
        "name": "Chowking"
      },
      "geometry": {
        "type": "Point",
        "coordinates": [
          121.0273173,
          14.560925
        ]
      }
    },
    {
      "type": "Feature",
      "id": "node/1188067264",
      "properties": {
        "@id": "node/1188067264",
        "amenity": "restaurant",
        "cuisine": "filipino",
        "name": "Bacolod Chicken Inasal"
      },
      "geometry": {
        "type": "Point",
        "coordinates": [
          121.0097615,
          14.5663587
        ]
      }
    },
    {
      "type": "Feature",
      "id": "node/1195128509",
      "properties": {
        "@id": "node/1195128509",
        "addr:city": "Makati",
        "addr:postcode": "1200",
        "addr:street": "Kamagong",
        "addr:street:corner": "Sampaloc",
        "amenity": "restaurant",
        "cuisine": "japanese",
        "name": "Suzukin"
      },
      "geometry": {
        "type": "Point",
        "coordinates": [
          121.0090167,
          14.5663902
        ]
      }
    },
    {
      "type": "Feature",
      "id": "node/1195134369",
      "properties": {
        "@id": "node/1195134369",
        "addr:postcode": "1200",
        "addr:street": "Kamagong",
        "amenity": "restaurant",
        "cuisine": "asian",
        "name": "TJ Grille"
      },
      "geometry": {
        "type": "Point",
        "coordinates": [
          121.0151898,
          14.5642744
        ]
      }
    },
    {
      "type": "Feature",
      "id": "node/1217111508",
      "properties": {
        "@id": "node/1217111508",
        "addr:city": "Manila",
        "addr:province": "Metro Manila",
        "amenity": "restaurant",
        "cuisine": "asian",
        "name": "Binalot"
      },
      "geometry": {
        "type": "Point",
        "coordinates": [
          120.98321,
          14.5724058
        ]
      }
    },
    {
      "type": "Feature",
      "id": "node/1217111524",
      "properties": {
        "@id": "node/1217111524",
        "addr:city": "Manila",
        "addr:province": "Metro Manila",
        "amenity": "restaurant",
        "cuisine": "asian",
        "name": "Mamita's Deli"
      },
      "geometry": {
        "type": "Point",
        "coordinates": [
          120.9830008,
          14.5722709
        ]
      }
    },
    {
      "type": "Feature",
      "id": "node/1236990290",
      "properties": {
        "@id": "node/1236990290",
        "addr:city": "Makati",
        "addr:floor": "G/F",
        "addr:housename": "Paseo Parkview Suites",
        "addr:street": "Valero",
        "addr:street:corner": "Sedeño",
        "amenity": "restaurant",
        "cuisine": "italian",
        "level": "0",
        "name": "The Old Spaghetti House"
      },
      "geometry": {
        "type": "Point",
        "coordinates": [
          121.0230933,
          14.5587964
        ]
      }
    },
    {
      "type": "Feature",
      "id": "node/1268095742",
      "properties": {
        "@id": "node/1268095742",
        "addr:city": "Manila",
        "addr:province": "Metro Manila",
        "addr:street": "General Miguel Malvar",
        "amenity": "restaurant",
        "cuisine": "japanese",
        "name": "Domo"
      },
      "geometry": {
        "type": "Point",
        "coordinates": [
          120.9861196,
          14.5730179
        ]
      }
    },
    {
      "type": "Feature",
      "id": "node/1268095743",
      "properties": {
        "@id": "node/1268095743",
        "addr:city": "Manila",
        "addr:province": "Metro Manila",
        "addr:street": "Marcelo H. del Pilar",
        "amenity": "restaurant",
        "cuisine": "chinese",
        "name": "Chowking"
      },
      "geometry": {
        "type": "Point",
        "coordinates": [
          120.9847717,
          14.5685771
        ]
      }
    },
    {
      "type": "Feature",
      "id": "node/1278026432",
      "properties": {
        "@id": "node/1278026432",
        "addr:city": "Manila",
        "addr:province": "Metro Manila",
        "amenity": "restaurant",
        "name": "Chowking"
      },
      "geometry": {
        "type": "Point",
        "coordinates": [
          120.9818048,
          14.603962
        ]
      }
    },
    {
      "type": "Feature",
      "id": "node/1278908811",
      "properties": {
        "@id": "node/1278908811",
        "addr:city": "Manila",
        "addr:province": "Metro Manila",
        "amenity": "restaurant",
        "cuisine": "chicken",
        "name": "Mang Inasal"
      },
      "geometry": {
        "type": "Point",
        "coordinates": [
          120.9842346,
          14.5980434
        ]
      }
    },
    {
      "type": "Feature",
      "id": "node/1290578726",
      "properties": {
        "@id": "node/1290578726",
        "addr:city": "Makati",
        "addr:housename": "The Link",
        "addr:street": "West",
        "amenity": "restaurant",
        "name": "Classic Savory"
      },
      "geometry": {
        "type": "Point",
        "coordinates": [
          121.0244833,
          14.5528157
        ]
      }
    },
    {
      "type": "Feature",
      "id": "node/1290578727",
      "properties": {
        "@id": "node/1290578727",
        "addr:city": "Makati",
        "addr:housename": "Glorietta 3",
        "addr:street": "West",
        "amenity": "restaurant",
        "cuisine": "japanese",
        "name": "Teriyaki Boy"
      },
      "geometry": {
        "type": "Point",
        "coordinates": [
          121.0244244,
          14.5520042
        ]
      }
    },
    {
      "type": "Feature",
      "id": "node/1290578730",
      "properties": {
        "@id": "node/1290578730",
        "addr:city": "Makati",
        "addr:housename": "Glorietta 4",
        "addr:street": "Courtyard Drive",
        "addr:street:corner": "East",
        "amenity": "restaurant",
        "cuisine": "steak",
        "name": "Outback Steakhouse"
      },
      "geometry": {
        "type": "Point",
        "coordinates": [
          121.0266008,
          14.5506341
        ]
      }
    },
    {
      "type": "Feature",
      "id": "node/1290578732",
      "properties": {
        "@id": "node/1290578732",
        "addr:city": "Makati",
        "addr:housename": "Glorietta 3",
        "addr:street": "Parkway Drive",
        "amenity": "restaurant",
        "cuisine": "chicken",
        "name": "Max's Restaurant"
      },
      "geometry": {
        "type": "Point",
        "coordinates": [
          121.0247866,
          14.5521399
        ]
      }
    },
    {
      "type": "Feature",
      "id": "node/1290578735",
      "properties": {
        "@id": "node/1290578735",
        "addr:city": "Makati",
        "addr:housename": "Glorietta 3",
        "addr:street": "Parkway Drive",
        "amenity": "restaurant",
        "cuisine": "italian",
        "name": "A Veneto"
      },
      "geometry": {
        "type": "Point",
        "coordinates": [
          121.0248713,
          14.5521346
        ]
      }
    },
    {
      "type": "Feature",
      "id": "node/1290578738",
      "properties": {
        "@id": "node/1290578738",
        "addr:city": "Makati",
        "addr:housename": "The Link",
        "addr:street": "Parkway Drive",
        "amenity": "restaurant",
        "name": "Buddy's"
      },
      "geometry": {
        "type": "Point",
        "coordinates": [
          121.0241753,
          14.5527415
        ]
      }
    },
    {
      "type": "Feature",
      "id": "node/1290578739",
      "properties": {
        "@id": "node/1290578739",
        "addr:city": "Makati",
        "addr:housename": "Glorietta 3",
        "addr:street": "Parkway Drive",
        "amenity": "restaurant",
        "cuisine": "indian",
        "name": "New Bombay"
      },
      "geometry": {
        "type": "Point",
        "coordinates": [
          121.0249472,
          14.5521278
        ]
      }
    },
    {
      "type": "Feature",
      "id": "node/1290578740",
      "properties": {
        "@id": "node/1290578740",
        "addr:city": "Makati",
        "addr:housename": "The Link",
        "addr:street": "Parkway Drive",
        "amenity": "restaurant",
        "cuisine": "filipino",
        "name": "Tapa King"
      },
      "geometry": {
        "type": "Point",
        "coordinates": [
          121.0240784,
          14.5527883
        ]
      }
    },
    {
      "type": "Feature",
      "id": "node/1290578743",
      "properties": {
        "@id": "node/1290578743",
        "addr:city": "Makati",
        "addr:housename": "Glorietta 4",
        "addr:street": "Courtyard Drive",
        "addr:street:corner": "East",
        "amenity": "restaurant",
        "cuisine": "chinese",
        "name": "Modern China"
      },
      "geometry": {
        "type": "Point",
        "coordinates": [
          121.0265161,
          14.5507225
        ]
      }
    },
    {
      "type": "Feature",
      "id": "node/1300510102",
      "properties": {
        "@id": "node/1300510102",
        "addr:city": "Makati",
        "addr:postcode": "1235",
        "amenity": "restaurant",
        "name": "Yellow Cab"
      },
      "geometry": {
        "type": "Point",
        "coordinates": [
          121.0058404,
          14.5587967
        ]
      }
    },
    {
      "type": "Feature",
      "id": "node/1300511985",
      "properties": {
        "@id": "node/1300511985",
        "addr:city": "Makati",
        "addr:postcode": "1235",
        "amenity": "restaurant",
        "name": "Teriyaki Boy"
      },
      "geometry": {
        "type": "Point",
        "coordinates": [
          121.0059853,
          14.5588642
        ]
      }
    },
    {
      "type": "Feature",
      "id": "node/1300511986",
      "properties": {
        "@id": "node/1300511986",
        "addr:city": "Makati",
        "addr:postcode": "1235",
        "amenity": "restaurant",
        "name": "Luk Yuen"
      },
      "geometry": {
        "type": "Point",
        "coordinates": [
          121.005937,
          14.5588434
        ]
      }
    },
    {
      "type": "Feature",
      "id": "node/1300511987",
      "properties": {
        "@id": "node/1300511987",
        "addr:city": "Makati",
        "addr:postcode": "1235",
        "amenity": "restaurant",
        "name": "Pancake House"
      },
      "geometry": {
        "type": "Point",
        "coordinates": [
          121.0060282,
          14.5588953
        ]
      }
    },
    {
      "type": "Feature",
      "id": "node/1300512039",
      "properties": {
        "@id": "node/1300512039",
        "addr:city": "Makati",
        "addr:postcode": "1235",
        "amenity": "restaurant",
        "name": "Savory"
      },
      "geometry": {
        "type": "Point",
        "coordinates": [
          121.0062159,
          14.5589784
        ]
      }
    },
    {
      "type": "Feature",
      "id": "node/1300561747",
      "properties": {
        "@id": "node/1300561747",
        "addr:housename": "Makati Executive Center",
        "addr:postcode": "1227",
        "addr:street": "L.P. Leviste",
        "amenity": "restaurant",
        "cuisine": "asian",
        "name": "Friss Point"
      },
      "geometry": {
        "type": "Point",
        "coordinates": [
          121.0201838,
          14.5597778
        ]
      }
    },
    {
      "type": "Feature",
      "id": "node/1300561749",
      "properties": {
        "@id": "node/1300561749",
        "addr:city": "Makati",
        "addr:housename": "Sagittarius",
        "addr:housenumber": "111",
        "addr:postcode": "1227",
        "addr:street": "H. V. Dela Costa",
        "amenity": "restaurant",
        "cuisine": "indian",
        "name": "New Bombay"
      },
      "geometry": {
        "type": "Point",
        "coordinates": [
          121.0254199,
          14.5610994
        ]
      }
    },
    {
      "type": "Feature",
      "id": "node/1302744610",
      "properties": {
        "@id": "node/1302744610",
        "addr:city": "Manila",
        "addr:province": "Metro Manila",
        "amenity": "restaurant",
        "name": "Hap Chan"
      },
      "geometry": {
        "type": "Point",
        "coordinates": [
          120.9851271,
          14.5727244
        ]
      }
    },
    {
      "type": "Feature",
      "id": "node/1305978960",
      "properties": {
        "@id": "node/1305978960",
        "addr:city": "Makati",
        "addr:housename": "Glorietta 5",
        "addr:street": "North",
        "addr:street:corner": "East",
        "amenity": "restaurant",
        "cuisine": "chinese",
        "name": "North Park"
      },
      "geometry": {
        "type": "Point",
        "coordinates": [
          121.0271446,
          14.5514956
        ]
      }
    },
    {
      "type": "Feature",
      "id": "node/1317139357",
      "properties": {
        "@id": "node/1317139357",
        "amenity": "restaurant",
        "cuisine": "chicken",
        "name": "Mang Inasal"
      },
      "geometry": {
        "type": "Point",
        "coordinates": [
          121.0172153,
          14.5581328
        ]
      }
    },
    {
      "type": "Feature",
      "id": "node/1317298005",
      "properties": {
        "@id": "node/1317298005",
        "amenity": "restaurant",
        "cuisine": "filipino",
        "name": "Tapa King"
      },
      "geometry": {
        "type": "Point",
        "coordinates": [
          121.0213137,
          14.5555575
        ]
      }
    },
    {
      "type": "Feature",
      "id": "node/1323393739",
      "properties": {
        "@id": "node/1323393739",
        "addr:city": "Manila",
        "addr:housenumber": "Manila 0",
        "addr:province": "Metro Manila",
        "addr:street": "Benavidez",
        "amenity": "restaurant",
        "name": "Wai Ying"
      },
      "geometry": {
        "type": "Point",
        "coordinates": [
          120.9783764,
          14.6072722
        ]
      }
    },
    {
      "type": "Feature",
      "id": "node/1337916187",
      "properties": {
        "@id": "node/1337916187",
        "addr:city": "Makati",
        "addr:housename": "Glorietta 4",
        "addr:street": "East",
        "addr:street:corner": "Courtyard Drive",
        "amenity": "restaurant",
        "cuisine": "japanese",
        "name": "Hokkaido Ramen Santouka"
      },
      "geometry": {
        "type": "Point",
        "coordinates": [
          121.0265123,
          14.5505323
        ]
      }
    },
    {
      "type": "Feature",
      "id": "node/1351016976",
      "properties": {
        "@id": "node/1351016976",
        "amenity": "restaurant",
        "name": "Mang Inasal"
      },
      "geometry": {
        "type": "Point",
        "coordinates": [
          121.0179673,
          14.6041757
        ]
      }
    },
    {
      "type": "Feature",
      "id": "node/1400646514",
      "properties": {
        "@id": "node/1400646514",
        "addr:housename": "Philamlife",
        "addr:street": "Paseo de Roxas",
        "amenity": "restaurant",
        "name": "Tower Club"
      },
      "geometry": {
        "type": "Point",
        "coordinates": [
          121.0218795,
          14.5573855
        ]
      }
    },
    {
      "type": "Feature",
      "id": "node/1415487682",
      "properties": {
        "@id": "node/1415487682",
        "addr:city": "Manila",
        "addr:housenumber": "1809-1813",
        "addr:province": "Metro Manila",
        "addr:street": "M H del Pilar",
        "amenity": "restaurant",
        "name": "Palacio de Maynila",
        "website": "http://www.palaciodemaynila.com"
      },
      "geometry": {
        "type": "Point",
        "coordinates": [
          120.9826093,
          14.5707257
        ]
      }
    },
    {
      "type": "Feature",
      "id": "node/1423835452",
      "properties": {
        "@id": "node/1423835452",
        "addr:city": "Manila",
        "addr:province": "Metro Manila",
        "amenity": "restaurant",
        "name": "Avila Lutong Kapampangan"
      },
      "geometry": {
        "type": "Point",
        "coordinates": [
          120.9852616,
          14.589238
        ]
      }
    },
    {
      "type": "Feature",
      "id": "node/1423836482",
      "properties": {
        "@id": "node/1423836482",
        "addr:city": "Manila",
        "addr:housename": "Aling Nene",
        "addr:province": "Metro Manila",
        "amenity": "restaurant",
        "designation": "Aling Nene",
        "name": "Aling Nene",
        "source": "Aling Nene"
      },
      "geometry": {
        "type": "Point",
        "coordinates": [
          121.0027665,
          14.5659015
        ]
      }
    },
    {
      "type": "Feature",
      "id": "node/1439977451",
      "properties": {
        "@id": "node/1439977451",
        "addr:city": "Makati",
        "addr:housename": "Angelus Plaza",
        "addr:housenumber": "104",
        "addr:street": "V. A. Rufino",
        "amenity": "restaurant",
        "cuisine": "italian",
        "name": "La Grotta Cucina Italiana",
        "website": "http://www.lagrottainc.com/"
      },
      "geometry": {
        "type": "Point",
        "coordinates": [
          121.0178222,
          14.5565895
        ]
      }
    },
    {
      "type": "Feature",
      "id": "node/1440221835",
      "properties": {
        "@id": "node/1440221835",
        "amenity": "restaurant",
        "cuisine": "italian",
        "name": "Shakeys"
      },